{
  "공공기관": [
    {
      "name": "목감그레리움아파트",
      "address": "목감중앙로 65 작은도서관",
      "lat": 37.3721879835003,
      "lng": 126.855625624204
    },
    {
      "name": "작은자리종합사회복지관",
      "address": "경기도 시흥시 시흥대로 1087",
      "lat": 37.432936302029,
      "lng": 126.792797243243
    },
    {
      "name": "시흥시목감종합사회복지관",
      "address": "경기도 시흥시 목감초등길 45",
      "lat": 37.385644748707,
      "lng": 126.858435976563
    },
    {
      "name": "시흥시 목감복지센터",
      "address": "경기도 시흥시 목감중앙로 20",
      "lat": 37.3764697627667,
      "lng": 126.853008888299
    },
    {
      "name": "국민건강보험공단 시흥지사",
      "address": "경기도 시흥시 시흥대로 268번길 3",
      "lat": 37.36499197643,
      "lng": 126.80749837483
    },
    {
      "name": "퍼스트리움 작은도서관",
      "address": "경기도 시흥시 목감둘레로 229-10",
      "lat": 37.3792638184896,
      "lng": 126.859896354867
    },
    {
      "name": "매화희망센터",
      "address": "경기도 시흥시 매화2로 48번길 6",
      "lat": 37.41629064036,
      "lng": 126.809331028689
    },
    {
      "name": "신일경로당",
      "address": "경기도 시흥시 시흥대로 1065번길 15",
      "lat": 37.431026190441,
      "lng": 126.790875765154
    },
    {
      "name": "매화동 경로당",
      "address": "경기도 시흥시 매화로 34번길",
      "lat": 37.4165377591043,
      "lng": 126.814695055367
    }
  ],
  "어린이집": [
    {
      "name": "시립은계어반리더스어린이집",
      "address": "경기도 시흥시 은계중앙로 325 관리동 어린이집",
      "lat": 37.449747316192,
      "lng": 126.799426605641
    },
    {
      "name": "시립대헌어린이집",
      "address": "경기도 문화마을로 6번길 5-2",
      "lat": 37.4431083564858,
      "lng": 126.780402406969
    },
    {
      "name": "은혜어린이집",
      "address": "경기도 시흥시 신천로 19번안길 8",
      "lat": 37.431407117194,
      "lng": 126.791475113856
    },
    {
      "name": "소망유치원",
      "address": "경기도 시흥시 대골안길 26-10",
      "lat": 37.4475420743647,
      "lng": 126.788663956502
    },
    {
      "name": "흰백합몬테소리어린이집",
      "address": "경기도 시흥시 문화마을로 16번길 46-1",
      "lat": 37.4451179337996,
      "lng": 126.784689208094
    },
    {
      "name": "모아유치원",
      "address": "경기도 시흥시 승지로 104",
      "lat": 37.372770073846,
      "lng": 126.811639927677
    },
    {
      "name": "시립능곡주공9단지 어린이집",
      "address": "경기도 시흥시 능곡중앙로 34",
      "lat": 37.3669757743582,
      "lng": 126.812667596804
    },
    {
      "name": "시립시청역트리플포레어린이집",
      "address": "경기도 시흥시 장현천로 61",
      "lat": 37.3745249697786,
      "lng": 126.806762966499
    },
    {
      "name": "시립장현금강펜테리움어린이집",
      "address": "경기도 시흥시 장현천로 133",
      "lat": 37.3680358634105,
      "lng": 126.803904951815
    },
    {
      "name": "시립장현제일풍경채센텀어린이집",
      "address": "경기도 시흥시 장현능곡로 144",
      "lat": 37.3693557551696,
      "lng": 126.804165121818
    },
    {
      "name": "진영유치원",
      "address": "경기도 시흥시 포도원로 39",
      "lat": 37.4360652425746,
      "lng": 126.778337133628
    },
    {
      "name": "아름유치원",
      "address": "경기도 시흥시 포도원로 96",
      "lat": 37.434253686464,
      "lng": 126.784439438659
    },
    {
      "name": "시립대야센트럴푸르지오어린이집",
      "address": "경기도 시흥시 수인로 3312번길 16",
      "lat": 37.4401230269917,
      "lng": 126.788655329604
    },
    {
      "name": "시립신현어린이집",
      "address": "경기도 시흥시 신현로 52",
      "lat": 37.4055201069026,
      "lng": 126.784402511109
    },
    {
      "name": "고은별아트어린이집",
      "address": "경기도 시흥시 하상동 378-4",
      "lat": 37.3905001729378,
      "lng": 126.815033232046
    },
    {
      "name": "에이스어린이집",
      "address": "경기도 시흥시 하상로 12-2",
      "lat": 37.3918477925207,
      "lng": 126.81288984533
    },
    {
      "name": "환희어린이집",
      "address": "경기도 시흥시 신현로 12번길 27",
      "lat": 37.4084067603029,
      "lng": 126.784880608792
    },
    {
      "name": "예인어린이집",
      "address": "경기도 시흥시 하중로 231번길 11",
      "lat": 37.391628314188,
      "lng": 126.807396631712
    },
    {
      "name": "은가비어린이집",
      "address": "경기도 시흥시 하중로 133번길 9",
      "lat": 37.3992631462678,
      "lng": 126.802069465039
    },
    {
      "name": "해오름유치원",
      "address": "경기도 시흥시 신현로 38번길 15",
      "lat": 37.4068152140275,
      "lng": 126.784195491503
    },
    {
      "name": "시립능곡주공7단지어린이집",
      "address": "경기도 시흥시 승지로 36",
      "lat": 37.3672504789352,
      "lng": 126.809721164497
    },
    {
      "name": "시립은계행복어린이집",
      "address": "경기도 시흥시 은계북길 LH2단지",
      "lat": 37.4493842732909,
      "lng": 126.799199627317
    }
  ]
}
